# Read about fixtures at http://api.rubyonrails.org/classes/ActiveRecord/Fixtures.html

flat_1:
  id: 1
  name: Sizeable house
  bedroom_count: 2
  latitude: 51.501000
  longitude: -0.142000

flat_2:
  id: 2
  name: Trendy flat
  bedroom_count: 2
  latitude: 51.523778
  longitude: -0.205500

flat_3:
  id: 3
  name: Flat with stunning view
  bedroom_count: 2
  latitude: 51.504444
  longitude: -0.086667

flat_4:
  id: 4
  name: Unique flat
  bedroom_count: 1
  latitude: 51.538333
  longitude: -0.013333

flat_5:
  id: 5
  name: Isolated house
  bedroom_count: 1
  latitude: 50.066944
  longitude: -5.746944